[
  {
    "location": "경기 안성 청미천",
    "date": "2024-10-28",
    "virus": "H5N1",
    "sample": "분변",
    "lat": 37.0079,
    "lon": 127.321
  },
  {
    "location": "제주 제주시 용수지",
    "date": "2024-10-17",
    "virus": "H5N1",
    "sample": "폐사체",
    "lat": 33.487,
    "lon": 126.367
  },
  {
    "location": "울산 울주 온산읍 대정리",
    "date": "2024-10-26",
    "virus": "H5N1",
    "sample": "폐사체",
    "lat": 35.469,
    "lon": 129.372
  },
  {
    "location": "전북 김제 두월천",
    "date": "2024-12-23",
    "virus": "H5N1",
    "sample": "폐사체",
    "lat": 35.803,
    "lon": 126.895
  },
  {
    "location": "전남 영암 영산강",
    "date": "2025-03-29",
    "virus": "H5N1",
    "sample": "분변",
    "lat": 34.793,
    "lon": 126.713
  },
  {
    "location": "경북 구미 해평습지",
    "date": "2025-01-20",
    "virus": "H5N1",
    "sample": "폐사체",
    "lat": 36.196,
    "lon": 128.452
  },
  {
    "location": "경남 창원 주남지",
    "date": "2025-01-27",
    "virus": "H5N1",
    "sample": "폐사체",
    "lat": 35.258,
    "lon": 128.681
  },
  {
    "location": "경기 화성 황구지천",
    "date": "2025-01-14",
    "virus": "H5N1",
    "sample": "분변",
    "lat": 37.213,
    "lon": 126.950
  },
  {
    "location": "경기 안성 안성천",
    "date": "2025-02-13",
    "virus": "H5N1",
    "sample": "포획",
    "lat": 37.013,
    "lon": 127.265
  },
  {
    "location": "인천 서구 경서동",
    "date": "2025-03-14",
    "virus": "H5N1",
    "sample": "폐사체",
    "lat": 37.546,
    "lon": 126.670
  },
  {
    "location": "충남 부여 금천",
    "date": "2025-02-11",
    "virus": "H5N1",
    "sample": "폐사체",
    "lat": 36.273,
    "lon": 126.919
  },
  {
    "location": "제주 서귀포 성산포",
    "date": "2024-12-12",
    "virus": "H5N1",
    "sample": "폐사체",
    "lat": 33.451,
    "lon": 126.920
  },
  {
    "location": "충남 금산 봉황천",
    "date": "2025-01-10",
    "virus": "H5N1",
    "sample": "폐사체",
    "lat": 36.102,
    "lon": 127.498
  },
  {
    "location": "전북 정읍 동진강",
    "date": "2025-04-08",
    "virus": "H5N1",
    "sample": "분변",
    "lat": 35.583,
    "lon": 126.867
  },
  {
    "location": "전북 부안 백산면",
    "date": "2025-01-31",
    "virus": "H5N1",
    "sample": "육용오리",
    "lat": 35.717,
    "lon": 126.731
  },
  {
    "location": "충남 서산 도당천",
    "date": "2025-02-24",
    "virus": "H5N1",
    "sample": "포획",
    "lat": 36.766,
    "lon": 126.487
  },
  {
    "location": "경기 시흥 갯골생태공원",
    "date": "2024-10-24",
    "virus": "H5N1",
    "sample": "폐사체",
    "lat": 37.386,
    "lon": 126.787
  },
  {
    "location": "충북 충주 요도천",
    "date": "2024-12-03",
    "virus": "H5N1",
    "sample": "분변",
    "lat": 36.968,
    "lon": 127.951
  },
  {
    "location": "제주 서귀포 일과리",
    "date": "2024-12-14",
    "virus": "H5N1",
    "sample": "폐사체",
    "lat": 33.273,
    "lon": 126.570
  },
  {
    "location": "충남 예산 대천천",
    "date": "2024-12-30",
    "virus": "H5N1",
    "sample": "폐사체",
    "lat": 36.674,
    "lon": 126.846
  },
  {
    "location": "경기 양평 남한강",
    "date": "2025-01-23",
    "virus": "H5N1",
    "sample": "폐사체",
    "lat": 37.497,
    "lon": 127.492
  },
  {
    "location": "경기 부천 굴포천",
    "date": "2025-01-31",
    "virus": "H5N1",
    "sample": "폐사체",
    "lat": 37.502,
    "lon": 126.799
  },
  {
    "location": "전남 순천 순천만",
    "date": "2025-03-03",
    "virus": "H5N1",
    "sample": "폐사체",
    "lat": 34.888,
    "lon": 127.521
  },
  {
    "location": "공주 금강 중류",
    "date": "2025-02-10",
    "virus": "H5N1",
    "sample": "분변",
    "lat": 36.461,
    "lon": 127.090
  },
  {
    "location": "충북 진천 산란계 농장",
    "date": "2024-12-27",
    "virus": "H5N1",
    "sample": "산란계",
    "lat": 36.852,
    "lon": 127.431
  },
  {
    "location": "세종 산란계 농장",
    "date": "2025-03-21",
    "virus": "H5N1",
    "sample": "산란계",
    "lat": 36.504,
    "lon": 127.248
  },
  {
    "location": "충남 아산 신봉지",
    "date": "2025-02-19",
    "virus": "H5N1",
    "sample": "폐사체",
    "lat": 36.779,
    "lon": 127.001
  },
  {
    "location": "경남 창녕 우포늪",
    "date": "2025-03-10",
    "virus": "H5N1",
    "sample": "분변",
    "lat": 35.555,
    "lon": 128.417
  },
  {
    "location": "전남 목포 북항",
    "date": "2025-03-14",
    "virus": "H5N1",
    "sample": "폐사체",
    "lat": 34.811,
    "lon": 126.401
  },
  {
    "location": "충북 청주 육용오리 농장",
    "date": "2025-04-04",
    "virus": "H5N1",
    "sample": "육용오리",
    "lat": 36.636,
    "lon": 127.489
  },
  {
    "location": "충남 아산 토종닭 농장",
    "date": "2025-04-19",
    "virus": "H5N1",
    "sample": "토종닭",
    "lat": 36.781,
    "lon": 127.000
  },
  {
    "location": "경기 안성 청미천",
    "date": "2024-10-28",
    "virus": "H5N1",
    "sample": "분변",
    "lat": 37.0079,
    "lon": 127.321
  },
  {
    "location": "제주 제주시 용수지",
    "date": "2024-10-17",
    "virus": "H5N1",
    "sample": "폐사체",
    "lat": 33.487,
    "lon": 126.367
  },
  {
    "location": "울산 울주 온산읍 대정리",
    "date": "2024-10-26",
    "virus": "H5N1",
    "sample": "폐사체",
    "lat": 35.469,
    "lon": 129.372
  },
  {
    "location": "경기 포천 포천천",
    "date": "2024-10-29",
    "virus": "H5N1",
    "sample": "분변",
    "lat": 37.892,
    "lon": 127.202
  },
  {
    "location": "전북 정읍 정읍천",
    "date": "2024-11-05",
    "virus": "H5N1",
    "sample": "포획",
    "lat": 35.577,
    "lon": 126.855
  },
  {
    "location": "경기 안성 청미천",
    "date": "2024-11-12",
    "virus": "H5N1",
    "sample": "포획",
    "lat": 37.010,
    "lon": 127.312
  },
  {
    "location": "경기 고양 창릉천",
    "date": "2024-11-13",
    "virus": "H5N1",
    "sample": "분변",
    "lat": 37.648,
    "lon": 126.848
  },
  {
    "location": "강원 횡성 섬강",
    "date": "2024-11-18",
    "virus": "H5N1",
    "sample": "폐사체",
    "lat": 37.493,
    "lon": 127.993
  },
  {
    "location": "경남 김해 해반천",
    "date": "2024-11-25",
    "virus": "H5N1",
    "sample": "분변",
    "lat": 35.236,
    "lon": 128.857
  },
  {
    "location": "충북 진천 미호강",
    "date": "2024-12-03",
    "virus": "H5N1",
    "sample": "분변",
    "lat": 36.854,
    "lon": 127.438
  },
  {
    "location": "충북 충주 요도천",
    "date": "2024-12-03",
    "virus": "H5N1",
    "sample": "분변",
    "lat": 36.970,
    "lon": 127.933
  },
  {
    "location": "제주 제주시 하도리",
    "date": "2024-12-04",
    "virus": "H5N1",
    "sample": "분변",
    "lat": 33.499,
    "lon": 126.911
  },
  {
    "location": "전북 군산 미제지",
    "date": "2024-12-06",
    "virus": "H5N1",
    "sample": "폐사체",
    "lat": 35.994,
    "lon": 126.700
  },
  {
    "location": "제주 서귀포 성산포",
    "date": "2024-12-09",
    "virus": "H5N1",
    "sample": "분변",
    "lat": 33.451,
    "lon": 126.920
  },
  {
    "location": "충남 금산 봉황천",
    "date": "2024-12-20",
    "virus": "H5N1",
    "sample": "폐사체",
    "lat": 36.106,
    "lon": 127.509
  },
  {
    "location": "경북 영천 신령천",
    "date": "2024-12-26",
    "virus": "H5N1",
    "sample": "폐사체",
    "lat": 35.982,
    "lon": 128.945
  },
  {
    "location": "경기 수원 축만제",
    "date": "2025-03-24",
    "virus": "H5N1",
    "sample": "폐사체",
    "lat": 37.284,
    "lon": 126.994
  },
  {
    "location": "전북 김제 육용오리 농장",
    "date": "2025-01-05",
    "virus": "H5N1",
    "sample": "육용오리",
    "lat": 35.805,
    "lon": 126.901
  },
  {
    "location": "충남 당진 육용종계 농장",
    "date": "2025-01-09",
    "virus": "H5N1",
    "sample": "육용종계",
    "lat": 36.893,
    "lon": 126.645
  },
  {
    "location": "세종 산란계 농장",
    "date": "2025-03-19",
    "virus": "H5N1",
    "sample": "산란계",
    "lat": 36.504,
    "lon": 127.247
  }
]
